{"meta":{"code":200},"notifications":[{"type":"notificationTray","item":{"unreadCount":0}}],"response":{"mayorships":{"count":9,"items":[{"venue":{"id":"4cf714d381cd6dcbbbcb7f0d","name":"456 W 57th St","itemId":"v4cf714d381cd6dcbbbcb7f0d","contact":{},"location":{"address":"456 W 57th St","crossStreet":"at 10th Ave","city":"New York","state":"NY","postalCode":"10019","lat":40.768833635211344,"lng":-73.98826360702515},"categories":[{"id":"4bf58dd8d48988d103941735","name":"Home","pluralName":"Homes","icon":"https://foursquare.com/img/categories/building/home.png","parents":["Home, Work, Others"],"primary":true}],"verified":false,"stats":{"checkinsCount":170,"usersCount":5,"tipCount":1}}},{"venue":{"id":"4a5382d2f964a5205cb21fe3","name":"Chipotle Mexican Grill","itemId":"v4a5382d2f964a5205cb21fe3","contact":{"phone":"2126736904","formattedPhone":"(212) 673-6904"},"location":{"address":"125 E 23rd St","crossStreet":"btwn Lexington & Park S","city":"New York","state":"NY","postalCode":"10010","country":"USA","lat":40.73976369,"lng":-73.985179},"categories":[{"id":"4bf58dd8d48988d153941735","name":"Burrito Place","pluralName":"Burrito Places","icon":"https://foursquare.com/img/categories/food/default.png","parents":["Food"],"primary":true},{"id":"4bf58dd8d48988d1c1941735","name":"Mexican Restaurant","pluralName":"Mexican Restaurants","icon":"https://foursquare.com/img/categories/food/mexican.png","parents":["Food"]}],"verified":true,"stats":{"checkinsCount":1888,"usersCount":841,"tipCount":13},"url":"http://www.chipotle.com"}},{"venue":{"id":"4c990333b6ee236a961dada7","name":"Small Change Cafe","itemId":"v4c990333b6ee236a961dada7","contact":{},"location":{"address":"One Madison Ave","crossStreet":"btw E 23rd & E 24th St","city":"New York","state":"New York","postalCode":"10010","lat":40.7412472,"lng":-73.9874333},"categories":[{"id":"4bf58dd8d48988d16d941735","name":"Café","pluralName":"Cafés","icon":"https://foursquare.com/img/categories/food/cafe.png","parents":["Food"],"primary":true}],"verified":false,"stats":{"checkinsCount":19,"usersCount":5,"tipCount":0}}},{"venue":{"id":"4c06d9b48a81c9b6dc5e2690","name":"NJ Transit Bus 64H","itemId":"v4c06d9b48a81c9b6dc5e2690","contact":{},"location":{"lat":40.759919,"lng":-74.023052},"categories":[{"id":"4bf58dd8d48988d12b951735","name":"Bus Line","pluralName":"Bus Lines","icon":"https://foursquare.com/img/categories/travel/busstation.png","parents":["Travel Spots","Bus Stations"],"primary":true}],"verified":false,"stats":{"checkinsCount":10,"usersCount":3,"tipCount":0}}},{"venue":{"id":"4c4ae8f9712ac928cda3236c","name":"Ellen's Shore House","itemId":"v4c4ae8f9712ac928cda3236c","contact":{},"location":{"city":"Manahawkin","state":"NJ","lat":39.66751,"lng":-74.232408},"categories":[{"id":"4bf58dd8d48988d1e2941735","name":"Beach","pluralName":"Beaches","icon":"https://foursquare.com/img/categories/parks_outdoors/beach.png","parents":["Great Outdoors"],"primary":true}],"verified":false,"stats":{"checkinsCount":21,"usersCount":5,"tipCount":0}}},{"venue":{"id":"4bb8dff8314e9521cbde489d","name":"Bob's Maritime Museum","itemId":"v4bb8dff8314e9521cbde489d","contact":{},"location":{"address":"110 Udall rd","city":"West Islip","state":"NY","postalCode":"11795","lat":40.715452133287066,"lng":-73.30466508865356},"categories":[{"id":"4bf58dd8d48988d103941735","name":"Home","pluralName":"Homes","icon":"https://foursquare.com/img/categories/building/home.png","parents":["Home, Work, Others"],"primary":true},{"id":"4bf58dd8d48988d181941735","name":"Museum","pluralName":"Museums","icon":"https://foursquare.com/img/categories/arts_entertainment/museum.png","parents":["Arts & Entertainment"]}],"verified":false,"stats":{"checkinsCount":24,"usersCount":6,"tipCount":0}}},{"venue":{"id":"4bc45951dce4eee1e11b729d","name":"English Rose Inn","itemId":"v4bc45951dce4eee1e11b729d","contact":{},"location":{"address":"195 VT Rte 242","city":"Montgomery Ctr","state":"VT","postalCode":"05471","lat":44.8819007873535,"lng":-72.5662002563477},"categories":[{"id":"4bf58dd8d48988d1f8931735","name":"Bed & Breakfast","pluralName":"Bed & Breakfasts","icon":"https://foursquare.com/img/categories/travel/bedandbreakfast.png","parents":["Travel Spots"],"primary":true}],"verified":false,"stats":{"checkinsCount":4,"usersCount":2,"tipCount":1}}},{"venue":{"id":"4e46b5f245dd2955e59b3f64","name":"Erin's Shmurd Emporium","itemId":"v4e46b5f245dd2955e59b3f64","contact":{},"location":{"lat":40.7707448,"lng":-73.95559621999999},"categories":[{"id":"4bf58dd8d48988d103941735","name":"Home","pluralName":"Homes","icon":"https://foursquare.com/img/categories/building/home.png","parents":["Home, Work, Others"],"primary":true}],"verified":false,"stats":{"checkinsCount":2,"usersCount":1,"tipCount":0}}},{"venue":{"id":"4ab65fd3f964a520c87620e3","name":"Harbor Bar & Brasserie","itemId":"v4ab65fd3f964a520c87620e3","contact":{},"location":{"address":"500 Harbor Blvd\u200e","city":"Weehawken","state":"NJ","lat":40.75892792712664,"lng":-74.02338981628418},"categories":[{"id":"4bf58dd8d48988d1c0941735","name":"Mediterranean Restaurant","pluralName":"Mediterranean Restaurants","icon":"https://foursquare.com/img/categories/food/default.png","parents":["Food"],"primary":true}],"verified":false,"stats":{"checkinsCount":40,"usersCount":34,"tipCount":1}}}]}}}