{"meta":{"code":200},"notifications":[{"type":"notificationTray","item":{"unreadCount":0}}],"response":{"mayorships":{"count":7,"items":[{"venue":{"id":"4cf714d381cd6dcbbbcb7f0d","name":"456 W 57th St","contact":{},"location":{"address":"456 W 57th St","crossStreet":"at 10th Ave","lat":40.768833635211344,"lng":-73.98826360702515,"postalCode":"10019","city":"New York","state":"NY"},"categories":[{"id":"4bf58dd8d48988d103941735","name":"Home","pluralName":"Homes","shortName":"Home","icon":{"prefix":"https://foursquare.com/img/categories/building/home_","sizes":[32,44,64,88,256],"name":".png"},"primary":true}],"verified":false,"stats":{"checkinsCount":201,"usersCount":5,"tipCount":1}}},{"venue":{"id":"4c990333b6ee236a961dada7","name":"Small Change Cafe","contact":{},"location":{"address":"One Madison Ave","crossStreet":"btw E 23rd & E 24th St","lat":40.7412472,"lng":-73.9874333,"postalCode":"10010","city":"New York","state":"New York"},"categories":[{"id":"4bf58dd8d48988d16d941735","name":"Café","pluralName":"Cafés","shortName":"Café","icon":{"prefix":"https://foursquare.com/img/categories/food/cafe_","sizes":[32,44,64,88,256],"name":".png"},"primary":true}],"verified":false,"stats":{"checkinsCount":19,"usersCount":5,"tipCount":0}}},{"venue":{"id":"4c4ae8f9712ac928cda3236c","name":"Ellen's Shore House","contact":{},"location":{"lat":39.66751,"lng":-74.232408,"city":"Manahawkin","state":"NJ"},"categories":[{"id":"4bf58dd8d48988d1e2941735","name":"Beach","pluralName":"Beaches","shortName":"Beach","icon":{"prefix":"https://foursquare.com/img/categories/parks_outdoors/beach_","sizes":[32,44,64,88,256],"name":".png"},"primary":true}],"verified":false,"stats":{"checkinsCount":21,"usersCount":5,"tipCount":0}}},{"venue":{"id":"4e46b5f245dd2955e59b3f64","name":"Erin's Shmurd Emporium","contact":{},"location":{"lat":40.7707448,"lng":-73.95559621999999},"categories":[{"id":"4bf58dd8d48988d103941735","name":"Home","pluralName":"Homes","shortName":"Home","icon":{"prefix":"https://foursquare.com/img/categories/building/home_","sizes":[32,44,64,88,256],"name":".png"},"primary":true}],"verified":false,"stats":{"checkinsCount":7,"usersCount":1,"tipCount":0}}},{"venue":{"id":"4bb8dff8314e9521cbde489d","name":"Bob's Maritime Museum","contact":{},"location":{"address":"110 Udall rd","lat":40.715452133287066,"lng":-73.30466508865356,"postalCode":"11795","city":"West Islip","state":"NY"},"categories":[{"id":"4bf58dd8d48988d103941735","name":"Home","pluralName":"Homes","shortName":"Home","icon":{"prefix":"https://foursquare.com/img/categories/building/home_","sizes":[32,44,64,88,256],"name":".png"},"primary":true}],"verified":false,"stats":{"checkinsCount":24,"usersCount":6,"tipCount":0}}},{"venue":{"id":"4bc45951dce4eee1e11b729d","name":"English Rose Inn","contact":{},"location":{"address":"195 VT Rte 242","lat":44.8819007873535,"lng":-72.5662002563477,"postalCode":"05471","city":"Montgomery Ctr","state":"VT"},"categories":[{"id":"4bf58dd8d48988d1f8931735","name":"Bed & Breakfast","pluralName":"Bed & Breakfasts","shortName":"Bed & Breakfast","icon":{"prefix":"https://foursquare.com/img/categories/travel/bedandbreakfast_","sizes":[32,44,64,88,256],"name":".png"},"primary":true}],"verified":false,"stats":{"checkinsCount":4,"usersCount":2,"tipCount":1}}},{"venue":{"id":"4ab65fd3f964a520c87620e3","name":"Harbor Bar & Brasserie","contact":{},"location":{"address":"500 Harbor Blvd\u200e","lat":40.75892792712664,"lng":-74.02338981628418,"city":"Weehawken","state":"NJ"},"categories":[{"id":"4bf58dd8d48988d1c0941735","name":"Mediterranean Restaurant","pluralName":"Mediterranean Restaurants","shortName":"Mediterranean","icon":{"prefix":"https://foursquare.com/img/categories/food/default_","sizes":[32,44,64,88,256],"name":".png"},"primary":true}],"verified":false,"stats":{"checkinsCount":40,"usersCount":34,"tipCount":1}}}]}}}