{"meta":{"code":200},"notifications":[{"type":"notificationTray","item":{"unreadCount":1}}],"response":{"checkins":{"count":3195,"items":[{"id":"4e5a25d9ae6099fc00d13148","createdAt":1314530777,"type":"checkin","isMayor":true,"timeZone":"America/New_York","venue":{"id":"4cf714d381cd6dcbbbcb7f0d","name":"456 W 57th St","itemId":"v4cf714d381cd6dcbbbcb7f0d","contact":{},"location":{"address":"456 W 57th St","crossStreet":"at 10th Ave","city":"New York","state":"NY","postalCode":"10019","lat":40.768833635211344,"lng":-73.98826360702515},"categories":[{"id":"4bf58dd8d48988d103941735","name":"Home","pluralName":"Homes","icon":"https://foursquare.com/img/categories/building/home.png","parents":["Home / Work / Others"],"primary":true}],"verified":false,"stats":{"checkinsCount":165,"usersCount":5,"tipCount":1}},"photos":{"count":0,"items":[]},"comments":{"count":0,"items":[]},"source":{"name":"Check in Assistant 2","url":"http://checkinassistant.com"}},{"id":"4e5985381495a8911280d88b","createdAt":1314489656,"type":"checkin","timeZone":"America/New_York","venue":{"id":"4e55c02a45dd0a4826ead309","name":"Hurricanepocalypse 2011","itemId":"v4e55c02a45dd0a4826ead309","contact":{"twitter":"NotifyNYC"},"location":{"address":"Moving Target!","city":"New York","state":"NY","postalCode":"10003","lat":40.757426096159115,"lng":-73.98639678955078},"categories":[{"id":"4bf58dd8d48988d162941735","name":"Other Great Outdoors","pluralName":"Other Great Outdoors","icon":"https://foursquare.com/img/categories/parks_outdoors/default.png","parents":["Great Outdoors"],"primary":true},{"id":"4d4b7105d754a06377d81259","name":"Great Outdoors","pluralName":"Great Outdoors","icon":"https://foursquare.com/img/categories/parks_outdoors/default.png","parents":[]},{"id":"4bf58dd8d48988d1d9941735","name":"Music Venue","pluralName":"Music Venues","icon":"https://foursquare.com/img/categories/nightlife/musicvenue.png","parents":["Nightlife Spots"]}],"verified":false,"stats":{"checkinsCount":32211,"usersCount":25082,"tipCount":0}},"photos":{"count":0,"items":[]},"comments":{"count":0,"items":[]},"source":{"name":"foursquare for Android","url":"https://foursquare.com/download/#/android"}},{"id":"4e5950f1b61c4aaa3dfc36d6","createdAt":1314476273,"type":"checkin","timeZone":"America/New_York","venue":{"id":"4e55c02a45dd0a4826ead309","name":"Hurricanepocalypse 2011","itemId":"v4e55c02a45dd0a4826ead309","contact":{"twitter":"NotifyNYC"},"location":{"address":"Moving Target!","city":"New York","state":"NY","postalCode":"10003","lat":40.757426096159115,"lng":-73.98639678955078},"categories":[{"id":"4bf58dd8d48988d162941735","name":"Other Great Outdoors","pluralName":"Other Great Outdoors","icon":"https://foursquare.com/img/categories/parks_outdoors/default.png","parents":["Great Outdoors"],"primary":true},{"id":"4d4b7105d754a06377d81259","name":"Great Outdoors","pluralName":"Great Outdoors","icon":"https://foursquare.com/img/categories/parks_outdoors/default.png","parents":[]},{"id":"4bf58dd8d48988d1d9941735","name":"Music Venue","pluralName":"Music Venues","icon":"https://foursquare.com/img/categories/nightlife/musicvenue.png","parents":["Nightlife Spots"]}],"verified":false,"stats":{"checkinsCount":32211,"usersCount":25082,"tipCount":0}},"photos":{"count":0,"items":[]},"comments":{"count":0,"items":[]},"source":{"name":"foursquare for Android","url":"https://foursquare.com/download/#/android"}},{"id":"4e59280e52b1b78b8198a719","createdAt":1314465806,"type":"checkin","isMayor":true,"timeZone":"America/New_York","venue":{"id":"4cf714d381cd6dcbbbcb7f0d","name":"456 W 57th St","itemId":"v4cf714d381cd6dcbbbcb7f0d","contact":{},"location":{"address":"456 W 57th St","crossStreet":"at 10th Ave","city":"New York","state":"NY","postalCode":"10019","lat":40.768833635211344,"lng":-73.98826360702515},"categories":[{"id":"4bf58dd8d48988d103941735","name":"Home","pluralName":"Homes","icon":"https://foursquare.com/img/categories/building/home.png","parents":["Home / Work / Others"],"primary":true}],"verified":false,"stats":{"checkinsCount":165,"usersCount":5,"tipCount":1}},"photos":{"count":0,"items":[]},"comments":{"count":0,"items":[]},"source":{"name":"Check in Assistant 2","url":"http://checkinassistant.com"}},{"id":"4e5924db7d8b966a15c4ae95","createdAt":1314464987,"type":"checkin","shout":"Crazy","timeZone":"America/New_York","venue":{"id":"4aca2ceef964a520bfc020e3","name":"Morton Williams","itemId":"v4aca2ceef964a520bfc020e3","contact":{"phone":"2125867750","formattedPhone":"(212) 586-7750"},"location":{"address":"225 W 57th St","crossStreet":"Broadway","city":"New York","state":"NY","postalCode":"10019","country":"USA","lat":40.7662296295166,"lng":-73.981553},"categories":[{"id":"4bf58dd8d48988d118951735","name":"Grocery Store","pluralName":"Grocery Stores","icon":"https://foursquare.com/img/categories/shops/food_grocery.png","parents":["Shops & Services","Food and Drink Shops"],"primary":true}],"verified":false,"stats":{"checkinsCount":730,"usersCount":274,"tipCount":5}},"photos":{"count":0,"items":[]},"comments":{"count":0,"items":[]},"source":{"name":"foursquare for Android","url":"https://foursquare.com/download/#/android"}},{"id":"4e591c9552b1b78b8197d0d1","createdAt":1314462869,"type":"checkin","shout":"Closed for the apocalypse","timeZone":"America/New_York","venue":{"id":"4530db29f964a520613b1fe3","name":"Whole Foods","itemId":"v4530db29f964a520613b1fe3","contact":{"phone":"2128239600","formattedPhone":"(212) 823-9600","twitter":"WholeFoodsNYC"},"location":{"address":"10 Columbus Circle","crossStreet":"58th & 60th St","city":"New York","state":"NY","postalCode":"10023","country":"USA","lat":40.7682748,"lng":-73.98202},"categories":[{"id":"4bf58dd8d48988d118951735","name":"Grocery Store","pluralName":"Grocery Stores","icon":"https://foursquare.com/img/categories/shops/food_grocery.png","parents":["Shops & Services","Food and Drink Shops"],"primary":true},{"id":"4bf58dd8d48988d1f9941735","name":"Food and Drink Shop","pluralName":"Food and Drink Shops","icon":"https://foursquare.com/img/categories/shops/default.png","parents":["Shops & Services"]},{"id":"4bf58dd8d48988d114941735","name":"Food Court","pluralName":"Food Courts","icon":"https://foursquare.com/img/categories/food/foodcourt.png","parents":["Food"]}],"verified":true,"stats":{"checkinsCount":16659,"usersCount":6811,"tipCount":91}},"photos":{"count":0,"items":[]},"comments":{"count":0,"items":[]},"source":{"name":"foursquare for Android","url":"https://foursquare.com/download/#/android"}},{"id":"4e590a36fa76d2b00c0748aa","createdAt":1314458166,"type":"checkin","isMayor":true,"timeZone":"America/New_York","venue":{"id":"4cf714d381cd6dcbbbcb7f0d","name":"456 W 57th St","itemId":"v4cf714d381cd6dcbbbcb7f0d","contact":{},"location":{"address":"456 W 57th St","crossStreet":"at 10th Ave","city":"New York","state":"NY","postalCode":"10019","lat":40.768833635211344,"lng":-73.98826360702515},"categories":[{"id":"4bf58dd8d48988d103941735","name":"Home","pluralName":"Homes","icon":"https://foursquare.com/img/categories/building/home.png","parents":["Home / Work / Others"],"primary":true}],"verified":false,"stats":{"checkinsCount":165,"usersCount":5,"tipCount":1}},"photos":{"count":0,"items":[]},"comments":{"count":0,"items":[]},"source":{"name":"Check in Assistant 2","url":"http://checkinassistant.com"}},{"id":"4e58e15018a8c2047503458c","createdAt":1314447696,"type":"checkin","isMayor":true,"timeZone":"America/New_York","venue":{"id":"4cf714d381cd6dcbbbcb7f0d","name":"456 W 57th St","itemId":"v4cf714d381cd6dcbbbcb7f0d","contact":{},"location":{"address":"456 W 57th St","crossStreet":"at 10th Ave","city":"New York","state":"NY","postalCode":"10019","lat":40.768833635211344,"lng":-73.98826360702515},"categories":[{"id":"4bf58dd8d48988d103941735","name":"Home","pluralName":"Homes","icon":"https://foursquare.com/img/categories/building/home.png","parents":["Home / Work / Others"],"primary":true}],"verified":false,"stats":{"checkinsCount":165,"usersCount":5,"tipCount":1}},"photos":{"count":0,"items":[]},"comments":{"count":0,"items":[]},"source":{"name":"Check in Assistant 2","url":"http://checkinassistant.com"}},{"id":"4e58982f1f6e804280ba0299","createdAt":1314428975,"type":"checkin","isMayor":true,"timeZone":"America/New_York","venue":{"id":"4cf714d381cd6dcbbbcb7f0d","name":"456 W 57th St","itemId":"v4cf714d381cd6dcbbbcb7f0d","contact":{},"location":{"address":"456 W 57th St","crossStreet":"at 10th Ave","city":"New York","state":"NY","postalCode":"10019","lat":40.768833635211344,"lng":-73.98826360702515},"categories":[{"id":"4bf58dd8d48988d103941735","name":"Home","pluralName":"Homes","icon":"https://foursquare.com/img/categories/building/home.png","parents":["Home / Work / Others"],"primary":true}],"verified":false,"stats":{"checkinsCount":165,"usersCount":5,"tipCount":1}},"photos":{"count":0,"items":[]},"comments":{"count":0,"items":[]},"source":{"name":"Check in Assistant 2","url":"http://checkinassistant.com"}},{"id":"4e582d86e4cd6acbd7671dc3","createdAt":1314401670,"type":"checkin","timeZone":"America/New_York","venue":{"id":"4530db29f964a520613b1fe3","name":"Whole Foods","itemId":"v4530db29f964a520613b1fe3","contact":{"phone":"2128239600","formattedPhone":"(212) 823-9600","twitter":"WholeFoodsNYC"},"location":{"address":"10 Columbus Circle","crossStreet":"58th & 60th St","city":"New York","state":"NY","postalCode":"10023","country":"USA","lat":40.7682748,"lng":-73.98202},"categories":[{"id":"4bf58dd8d48988d118951735","name":"Grocery Store","pluralName":"Grocery Stores","icon":"https://foursquare.com/img/categories/shops/food_grocery.png","parents":["Shops & Services","Food and Drink Shops"],"primary":true},{"id":"4bf58dd8d48988d1f9941735","name":"Food and Drink Shop","pluralName":"Food and Drink Shops","icon":"https://foursquare.com/img/categories/shops/default.png","parents":["Shops & Services"]},{"id":"4bf58dd8d48988d114941735","name":"Food Court","pluralName":"Food Courts","icon":"https://foursquare.com/img/categories/food/foodcourt.png","parents":["Food"]}],"verified":true,"stats":{"checkinsCount":16659,"usersCount":6811,"tipCount":91}},"photos":{"count":0,"items":[]},"comments":{"count":0,"items":[]},"source":{"name":"foursquare for Android","url":"https://foursquare.com/download/#/android"}},{"id":"4e58295cb0fb4c4d61fbd9f1","createdAt":1314400604,"type":"checkin","shout":"All out of waterwings in my size.","timeZone":"America/New_York","venue":{"id":"4a60eb5ef964a52078c11fe3","name":"Toys\"Ð¯\"Us","itemId":"v4a60eb5ef964a52078c11fe3","contact":{"phone":"6463668800","formattedPhone":"(646) 366-8800","twitter":"ToysRUs"},"location":{"address":"1514 Broadway","crossStreet":"btwn 44th & 45th","city":"New York","state":"NY","postalCode":"10036","country":"USA","lat":40.757313,"lng":-73.985671},"categories":[{"id":"4bf58dd8d48988d1f3941735","name":"Toy or Game Store","pluralName":"Toy or Game Stores","icon":"https://foursquare.com/img/categories/shops/toys.png","parents":["Shops & Services"],"primary":true},{"id":"4bf58dd8d48988d10b951735","name":"Video Game Store","pluralName":"Video Game Stores","icon":"https://foursquare.com/img/categories/shops/videogames.png","parents":["Shops & Services"]},{"id":"4bf58dd8d48988d1f1931735","name":"General Entertainment","pluralName":"General Entertainment","icon":"https://foursquare.com/img/categories/arts_entertainment/default.png","parents":["Arts & Entertainment"]}],"verified":true,"stats":{"checkinsCount":16997,"usersCount":14236,"tipCount":57}},"photos":{"count":0,"items":[]},"comments":{"count":0,"items":[]},"source":{"name":"foursquare for Android","url":"https://foursquare.com/download/#/android"}},{"id":"4e57d4f3d4c0fccb89af28ad","createdAt":1314378995,"type":"checkin","timeZone":"America/New_York","venue":{"id":"4d0a528682aaa0933236d5c2","name":"Gilt City HQ","itemId":"v4d0a528682aaa0933236d5c2","contact":{"twitter":"giltcitynyc"},"location":{"address":"1 Madison Ave.","city":"New York","state":"NY","country":"USA","lat":40.741284,"lng":-73.987383},"categories":[{"id":"4bf58dd8d48988d125941735","name":"Tech Startup","pluralName":"Tech Startups","icon":"https://foursquare.com/img/categories/building/default.png","parents":["Home / Work / Others","Offices"],"primary":true}],"verified":false,"stats":{"checkinsCount":1344,"usersCount":115,"tipCount":2}},"photos":{"count":0,"items":[]},"comments":{"count":0,"items":[]},"source":{"name":"Check in Assistant 2","url":"http://checkinassistant.com"}},{"id":"4e57a4f2887710a84818b862","createdAt":1314366706,"type":"checkin","isMayor":true,"timeZone":"America/New_York","venue":{"id":"4cf714d381cd6dcbbbcb7f0d","name":"456 W 57th St","itemId":"v4cf714d381cd6dcbbbcb7f0d","contact":{},"location":{"address":"456 W 57th St","crossStreet":"at 10th Ave","city":"New York","state":"NY","postalCode":"10019","lat":40.768833635211344,"lng":-73.98826360702515},"categories":[{"id":"4bf58dd8d48988d103941735","name":"Home","pluralName":"Homes","icon":"https://foursquare.com/img/categories/building/home.png","parents":["Home / Work / Others"],"primary":true}],"verified":false,"stats":{"checkinsCount":165,"usersCount":5,"tipCount":1}},"photos":{"count":0,"items":[]},"comments":{"count":0,"items":[]},"source":{"name":"Check in Assistant 2","url":"http://checkinassistant.com"}},{"id":"4e56ca01c65bf8226458bd97","createdAt":1314310657,"type":"checkin","shout":"Farewell party for Alain.","timeZone":"America/New_York","venue":{"id":"4a4183a0f964a5205ba51fe3","name":"Almond","itemId":"v4a4183a0f964a5205ba51fe3","contact":{"phone":"2122287557","formattedPhone":"(212) 228-7557","twitter":"almond_nyc"},"location":{"address":"12 E 22nd St","crossStreet":"btwn Park & Broadway","city":"New York","state":"NY","postalCode":"10010","country":"USA","lat":40.740351,"lng":-73.988651},"categories":[{"id":"4bf58dd8d48988d10c941735","name":"French Restaurant","pluralName":"French Restaurants","icon":"https://foursquare.com/img/categories/food/french.png","parents":["Food"],"primary":true},{"id":"4bf58dd8d48988d143941735","name":"Breakfast Spot","pluralName":"Breakfast Spots","icon":"https://foursquare.com/img/categories/food/default.png","parents":["Food"]},{"id":"4bf58dd8d48988d121941735","name":"Lounge","pluralName":"Lounges","icon":"https://foursquare.com/img/categories/nightlife/lounge.png","parents":["Nightlife Spots"]}],"verified":true,"stats":{"checkinsCount":3395,"usersCount":2033,"tipCount":27},"url":"http://www.almondnyc.com"},"photos":{"count":0,"items":[]},"comments":{"count":0,"items":[]},"source":{"name":"foursquare for Android","url":"https://foursquare.com/download/#/android"}},{"id":"4e5675df887784077061b4ac","createdAt":1314289119,"type":"checkin","isMayor":true,"timeZone":"America/New_York","venue":{"id":"4a5382d2f964a5205cb21fe3","name":"Chipotle Mexican Grill","itemId":"v4a5382d2f964a5205cb21fe3","contact":{"phone":"2126736904","formattedPhone":"(212) 673-6904"},"location":{"address":"125 E 23rd St","crossStreet":"btwn Lexington & Park S","city":"New York","state":"NY","postalCode":"10010","country":"USA","lat":40.73976369,"lng":-73.985179},"categories":[{"id":"4bf58dd8d48988d153941735","name":"Burrito Place","pluralName":"Burrito Places","icon":"https://foursquare.com/img/categories/food/default.png","parents":["Food"],"primary":true},{"id":"4bf58dd8d48988d1c1941735","name":"Mexican Restaurant","pluralName":"Mexican Restaurants","icon":"https://foursquare.com/img/categories/food/mexican.png","parents":["Food"]}],"verified":true,"stats":{"checkinsCount":1867,"usersCount":833,"tipCount":13},"url":"http://www.chipotle.com"},"photos":{"count":0,"items":[]},"comments":{"count":0,"items":[]},"source":{"name":"foursquare for Android","url":"https://foursquare.com/download/#/android"}},{"id":"4e5668a3ae6040e96e022465","createdAt":1314285731,"type":"checkin","timeZone":"America/New_York","venue":{"id":"4d0a528682aaa0933236d5c2","name":"Gilt City HQ","itemId":"v4d0a528682aaa0933236d5c2","contact":{"twitter":"giltcitynyc"},"location":{"address":"1 Madison Ave.","city":"New York","state":"NY","country":"USA","lat":40.741284,"lng":-73.987383},"categories":[{"id":"4bf58dd8d48988d125941735","name":"Tech Startup","pluralName":"Tech Startups","icon":"https://foursquare.com/img/categories/building/default.png","parents":["Home / Work / Others","Offices"],"primary":true}],"verified":false,"stats":{"checkinsCount":1344,"usersCount":115,"tipCount":2}},"photos":{"count":0,"items":[]},"comments":{"count":0,"items":[]},"source":{"name":"Check in Assistant 2","url":"http://checkinassistant.com"}},{"id":"4e562d7eb993e0d194047bc5","createdAt":1314270590,"type":"checkin","isMayor":true,"timeZone":"America/New_York","venue":{"id":"4cf714d381cd6dcbbbcb7f0d","name":"456 W 57th St","itemId":"v4cf714d381cd6dcbbbcb7f0d","contact":{},"location":{"address":"456 W 57th St","crossStreet":"at 10th Ave","city":"New York","state":"NY","postalCode":"10019","lat":40.768833635211344,"lng":-73.98826360702515},"categories":[{"id":"4bf58dd8d48988d103941735","name":"Home","pluralName":"Homes","icon":"https://foursquare.com/img/categories/building/home.png","parents":["Home / Work / Others"],"primary":true}],"verified":false,"stats":{"checkinsCount":165,"usersCount":5,"tipCount":1}},"photos":{"count":0,"items":[]},"comments":{"count":0,"items":[]},"source":{"name":"Check in Assistant 2","url":"http://checkinassistant.com"}},{"id":"4e55ee37b993e0d19401fbe4","createdAt":1314254391,"type":"checkin","isMayor":true,"timeZone":"America/New_York","venue":{"id":"4cf714d381cd6dcbbbcb7f0d","name":"456 W 57th St","itemId":"v4cf714d381cd6dcbbbcb7f0d","contact":{},"location":{"address":"456 W 57th St","crossStreet":"at 10th Ave","city":"New York","state":"NY","postalCode":"10019","lat":40.768833635211344,"lng":-73.98826360702515},"categories":[{"id":"4bf58dd8d48988d103941735","name":"Home","pluralName":"Homes","icon":"https://foursquare.com/img/categories/building/home.png","parents":["Home / Work / Others"],"primary":true}],"verified":false,"stats":{"checkinsCount":165,"usersCount":5,"tipCount":1}},"photos":{"count":0,"items":[]},"comments":{"count":0,"items":[]},"source":{"name":"Check in Assistant 2","url":"http://checkinassistant.com"}},{"id":"4e55cb3f8877f56f33b71f79","createdAt":1314245439,"type":"checkin","shout":"Fries fries and more fries!","timeZone":"America/New_York","venue":{"id":"4356de00f964a520d2281fe3","name":"Pommes Frites","itemId":"v4356de00f964a520d2281fe3","contact":{"phone":"2126741234","formattedPhone":"(212) 674-1234"},"location":{"address":"123 2nd Ave.","crossStreet":"at 7th St.","city":"New York","state":"NY","postalCode":"10003","country":"USA","lat":40.728238,"lng":-73.98797},"categories":[{"id":"4bf58dd8d48988d16e941735","name":"Fast Food Restaurant","pluralName":"Fast Food Restaurants","icon":"https://foursquare.com/img/categories/food/fastfood.png","parents":["Food"],"primary":true}],"verified":false,"stats":{"checkinsCount":6028,"usersCount":4295,"tipCount":112}},"photos":{"count":0,"items":[]},"comments":{"count":0,"items":[]},"source":{"name":"foursquare for Android","url":"https://foursquare.com/download/#/android"}},{"id":"4e558fe7d22d9b4ff4b67a05","createdAt":1314230247,"type":"checkin","timeZone":"America/New_York","venue":{"id":"4c521c3d99ecc9b6a2c05d5a","name":"Billy Hurricanes","itemId":"v4c521c3d99ecc9b6a2c05d5a","contact":{"twitter":"BillyHurricanes"},"location":{"address":"25 Avenue B","crossStreet":"East 3rd","city":"New York","state":"NY","postalCode":"10009","country":"USA","lat":40.72231565,"lng":-73.983211},"categories":[{"id":"4bf58dd8d48988d116941735","name":"Bar","pluralName":"Bars","icon":"https://foursquare.com/img/categories/nightlife/bar.png","parents":["Nightlife Spots"],"primary":true}],"verified":false,"stats":{"checkinsCount":2106,"usersCount":1386,"tipCount":13}},"photos":{"count":0,"items":[]},"comments":{"count":0,"items":[]},"source":{"name":"foursquare for Android","url":"https://foursquare.com/download/#/android"}}]}}}