{"meta":{"code":200},"notifications":[{"type":"notificationTray","item":{"unreadCount":0}}],"response":{"venues":[{"id":"4cf714d381cd6dcbbbcb7f0d","name":"456 W 57th St","contact":{},"location":{"address":"456 W 57th St","crossStreet":"at 10th Ave","lat":40.768833635211344,"lng":-73.98826360702515,"distance":133,"postalCode":"10019","city":"New York","state":"NY"},"categories":[{"id":"4bf58dd8d48988d103941735","name":"Home","pluralName":"Homes","shortName":"Home","icon":{"prefix":"https://foursquare.com/img/categories/building/home_","sizes":[32,44,64,88,256],"name":".png"},"primary":true}],"verified":false,"stats":{"checkinsCount":201,"usersCount":5,"tipCount":1},"hereNow":{"count":0}},{"id":"4b5748d8f964a520432f28e3","name":"Beijing Chinese Food","contact":{"phone":"2122626162","formattedPhone":"(212) 262-6162"},"location":{"address":"860 10th Ave.","crossStreet":"b/w W 56th & W 57th","lat":40.76884210109711,"lng":-73.98881,"distance":87,"postalCode":"10019","city":"New York","state":"NY","country":"USA"},"categories":[{"id":"4bf58dd8d48988d145941735","name":"Chinese Restaurant","pluralName":"Chinese Restaurants","shortName":"Chinese","icon":{"prefix":"https://foursquare.com/img/categories/food/chinese_","sizes":[32,44,64,88,256],"name":".png"},"primary":true}],"verified":false,"stats":{"checkinsCount":122,"usersCount":45,"tipCount":2},"hereNow":{"count":0}},{"id":"4b412640f964a5201cc225e3","name":"D'Agostino Supermarket","contact":{"phone":"6462157781","formattedPhone":"(646) 215-7781"},"location":{"address":"815 10th Ave","crossStreet":"54th Street","lat":40.767424,"lng":-73.989923,"distance":149,"postalCode":"10019","city":"New York","state":"NY"},"categories":[{"id":"4bf58dd8d48988d118951735","name":"Grocery Store","pluralName":"Grocery Stores","shortName":"Grocery / Supermarket","icon":{"prefix":"https://foursquare.com/img/categories/shops/food_grocery_","sizes":[32,44,64,88,256],"name":".png"},"primary":true}],"verified":false,"stats":{"checkinsCount":918,"usersCount":269,"tipCount":1},"hereNow":{"count":0}},{"id":"4a77196ff964a52093e31fe3","name":"Casabianca Pizzeria","contact":{"phone":"2123978725","formattedPhone":"(212) 397-8725"},"location":{"address":"503 W 57th St","crossStreet":"10th Avenue","lat":40.769292,"lng":-73.988899,"distance":99,"postalCode":"10019","city":"New York","state":"NY","country":"USA"},"categories":[{"id":"4bf58dd8d48988d1ca941735","name":"Pizza Place","pluralName":"Pizza Places","shortName":"Pizza","icon":{"prefix":"https://foursquare.com/img/categories/food/pizza_","sizes":[32,44,64,88,256],"name":".png"},"primary":true}],"verified":false,"stats":{"checkinsCount":272,"usersCount":70,"tipCount":3},"hereNow":{"count":0}},{"id":"4b82c961f964a520dfe430e3","name":"Justino's Pizzeria","contact":{"phone":"2125821222","formattedPhone":"(212) 582-1222","twitter":"JustinosPizza"},"location":{"address":"881 10th Ave","crossStreet":"West 58th St","lat":40.76944068,"lng":-73.988096,"distance":165,"postalCode":"10019","city":"New York","state":"NY","country":"USA"},"categories":[{"id":"4bf58dd8d48988d1ca941735","name":"Pizza Place","pluralName":"Pizza Places","shortName":"Pizza","icon":{"prefix":"https://foursquare.com/img/categories/food/pizza_","sizes":[32,44,64,88,256],"name":".png"},"primary":true}],"verified":false,"stats":{"checkinsCount":412,"usersCount":205,"tipCount":8},"hereNow":{"count":0}},{"id":"4d7a7efd25c5cbff42275533","name":"106 & Park Studio","contact":{"twitter":"106andpark"},"location":{"address":"530 57th Street","crossStreet":"btwn 10th and 11th ave","lat":40.7696325,"lng":-73.9898235,"distance":96,"postalCode":"10019","city":"New York","state":"NY","country":"USA"},"categories":[{"id":"4bf58dd8d48988d10d951735","name":"Record Shop","pluralName":"Record Shops","shortName":"Record Shop","icon":{"prefix":"https://foursquare.com/img/categories/shops/record_shop_","sizes":[32,44,64,88,256],"name":".png"},"primary":true}],"verified":false,"stats":{"checkinsCount":81,"usersCount":62,"tipCount":1},"hereNow":{"count":0}},{"id":"4a8ecbdcf964a520ac1220e3","name":"CBS Broadcast Center","contact":{"phone":"2129754321","formattedPhone":"(212) 975-4321","twitter":"CBSNews"},"location":{"address":"524 W 57th St","crossStreet":"at 10th Ave","lat":40.769359,"lng":-73.989788,"distance":66,"postalCode":"10019","city":"New York","state":"NY","country":"USA"},"categories":[{"id":"4bf58dd8d48988d124941735","name":"Office","pluralName":"Offices","shortName":"Corporate / Office","icon":{"prefix":"https://foursquare.com/img/categories/building/default_","sizes":[32,44,64,88,256],"name":".png"},"primary":true}],"verified":false,"stats":{"checkinsCount":4394,"usersCount":808,"tipCount":7},"hereNow":{"count":2}},{"id":"4913fa79f964a52068521fe3","name":"Jake's Saloon","contact":{"phone":"2123333100","formattedPhone":"(212) 333-3100"},"location":{"address":"875 10th Ave","crossStreet":"at W. 57th St.","lat":40.769164,"lng":-73.988679,"distance":107,"postalCode":"10019","city":"New York","state":"NY","country":"USA"},"categories":[{"id":"4bf58dd8d48988d11b941735","name":"Pub","pluralName":"Pubs","shortName":"Pub","icon":{"prefix":"https://foursquare.com/img/categories/nightlife/pub_","sizes":[32,44,64,88,256],"name":".png"},"primary":true}],"verified":false,"stats":{"checkinsCount":996,"usersCount":787,"tipCount":12},"url":"http://jakessaloonnyc.com","hereNow":{"count":0}},{"id":"467bcc72f964a52001481fe3","name":"The Colbert Report","contact":{"twitter":"stephenathome"},"location":{"address":"513 West 54th St","crossStreet":"btwn 10th & 11th Ave","lat":40.767938,"lng":-73.990859,"distance":125,"postalCode":"10019","city":"New York","state":"NY","country":"USA"},"categories":[{"id":"4bf58dd8d48988d18e941735","name":"Comedy Club","pluralName":"Comedy Clubs","shortName":"Comedy Club","icon":{"prefix":"https://foursquare.com/img/categories/arts_entertainment/comedyclub_","sizes":[32,44,64,88,256],"name":".png"},"primary":true}],"verified":false,"stats":{"checkinsCount":1510,"usersCount":1274,"tipCount":18},"hereNow":{"count":0}},{"id":"4b9e8e43f964a520c9ee36e3","name":"Boston Market","contact":{"phone":"2122624694","formattedPhone":"(212) 262-4694","twitter":"bostmarket"},"location":{"address":"885 10th Ave","crossStreet":"W 58th St.","lat":40.76951,"lng":-73.98822552,"distance":159,"postalCode":"10019","city":"New York","state":"NY","country":"USA"},"categories":[{"id":"4bf58dd8d48988d1df931735","name":"BBQ Joint","pluralName":"BBQ Joints","shortName":"BBQ","icon":{"prefix":"https://foursquare.com/img/categories/food/bbq_","sizes":[32,44,64,88,256],"name":".png"},"primary":true}],"verified":false,"stats":{"checkinsCount":537,"usersCount":280,"tipCount":6},"hereNow":{"count":0}},{"id":"4b5f371cf964a520d3ad29e3","name":"Ocean Dragon Chinese","contact":{"phone":"2122457210","formattedPhone":"(212) 245-7210"},"location":{"address":"877 10th Ave","crossStreet":"57th St","lat":40.76922297477722,"lng":-73.988369,"distance":134,"postalCode":"10019","city":"New York","state":"NY"},"categories":[{"id":"4bf58dd8d48988d145941735","name":"Chinese Restaurant","pluralName":"Chinese Restaurants","shortName":"Chinese","icon":{"prefix":"https://foursquare.com/img/categories/food/chinese_","sizes":[32,44,64,88,256],"name":".png"},"primary":true}],"verified":false,"stats":{"checkinsCount":117,"usersCount":54,"tipCount":2},"hereNow":{"count":0}},{"id":"4ca32f05750ca093f85b1667","name":"John Jay College - Westport","contact":{"twitter":"JohnJayCollege"},"location":{"address":"500 West 56th St.","lat":40.768143,"lng":-73.989444,"distance":76,"postalCode":"10019","city":"New York","state":"NY","country":"USA"},"categories":[{"id":"4bf58dd8d48988d198941735","name":"College Academic Building","pluralName":"College Academic Buildings","shortName":"Academic Building","icon":{"prefix":"https://foursquare.com/img/categories/education/default_","sizes":[32,44,64,88,256],"name":".png"},"primary":true}],"verified":false,"stats":{"checkinsCount":823,"usersCount":165,"tipCount":4},"hereNow":{"count":0}},{"id":"4b48e4b4f964a520275c26e3","name":"Subway Restaurant","contact":{"phone":"2122652637","formattedPhone":"(212) 265-2637"},"location":{"address":"852 10th Ave","crossStreet":"W. 56th St.","lat":40.768412947654724,"lng":-73.9893901348114,"distance":54,"postalCode":"10019","city":"New York","state":"NY"},"categories":[{"id":"4bf58dd8d48988d1c5941735","name":"Sandwich Place","pluralName":"Sandwich Places","shortName":"Sandwiches","icon":{"prefix":"https://foursquare.com/img/categories/food/sandwiches_","sizes":[32,44,64,88,256],"name":".png"},"primary":true}],"verified":false,"stats":{"checkinsCount":179,"usersCount":92,"tipCount":0},"hereNow":{"count":0}},{"id":"4adb9ae8f964a520542921e3","name":"10th Avenue Wines & Liquors","contact":{"phone":"2122456700","formattedPhone":"(212) 245-6700"},"location":{"address":"812 10th Ave.","crossStreet":"at W 54th St.","lat":40.767119135122165,"lng":-73.98983001708984,"distance":182,"postalCode":"10019","city":"New York","state":"NY","country":"USA"},"categories":[{"id":"4bf58dd8d48988d119951735","name":"Wine Shop","pluralName":"Wine Shops","shortName":"Wine Shop","icon":{"prefix":"https://foursquare.com/img/categories/shops/food_wineshop_","sizes":[32,44,64,88,256],"name":".png"},"primary":true}],"verified":false,"stats":{"checkinsCount":347,"usersCount":100,"tipCount":4},"url":"http://www.10thavewinesandliquors.com","hereNow":{"count":0}},{"id":"4dd047fa183899ddfb019d44","name":"57th St","contact":{},"location":{"lat":40.7690833,"lng":-73.9899305,"distance":36,"city":"New York","state":"NY"},"categories":[{"id":"4bf58dd8d48988d18e941735","name":"Comedy Club","pluralName":"Comedy Clubs","shortName":"Comedy Club","icon":{"prefix":"https://foursquare.com/img/categories/arts_entertainment/comedyclub_","sizes":[32,44,64,88,256],"name":".png"},"primary":true}],"verified":false,"stats":{"checkinsCount":6,"usersCount":1,"tipCount":0},"hereNow":{"count":0}},{"id":"4aef4ac0f964a5204cd721e3","name":"Thailand Restaurant","contact":{"phone":"2129578818","formattedPhone":"(212) 957-8818"},"location":{"address":"856 10th Ave.","crossStreet":"57th St.","lat":40.768712,"lng":-73.98926045,"distance":49,"postalCode":"10019","city":"New York","state":"NY"},"categories":[{"id":"4bf58dd8d48988d149941735","name":"Thai Restaurant","pluralName":"Thai Restaurants","shortName":"Thai","icon":{"prefix":"https://foursquare.com/img/categories/food/default_","sizes":[32,44,64,88,256],"name":".png"},"primary":true}],"verified":false,"stats":{"checkinsCount":248,"usersCount":125,"tipCount":6},"hereNow":{"count":0}},{"id":"4e037b9188779095014329ae","name":"The Jeremy Kyle Show","contact":{"twitter":"jeremykyletv"},"location":{"address":"515 west 57th street","crossStreet":"10th ave","lat":40.769419,"lng":-73.989081,"distance":97,"postalCode":"10019","city":"New york","state":"New York","country":"USA"},"categories":[{"id":"4bf58dd8d48988d1f1931735","name":"General Entertainment","pluralName":"General Entertainment","shortName":"Other - Entertainment","icon":{"prefix":"https://foursquare.com/img/categories/arts_entertainment/default_","sizes":[32,44,64,88,256],"name":".png"},"primary":true}],"verified":true,"stats":{"checkinsCount":166,"usersCount":28,"tipCount":0},"url":"http://www.jeremykyleusa.com","hereNow":{"count":0}},{"id":"4d8914e2cea64eb9256b3866","name":"Tuscan Sun Grill @ John Jay College","contact":{"phone":"2122378005","formattedPhone":"(212) 237-8005"},"location":{"address":"Westport (1st Floor)","crossStreet":"John Jay College of Criminal Justice","lat":40.76841923403027,"lng":-73.98940086364746,"distance":53,"postalCode":"10019","city":"New York","state":"New York"},"categories":[{"id":"4bf58dd8d48988d1a1941735","name":"College Cafeteria","pluralName":"College Cafeterias","shortName":"Cafeteria","icon":{"prefix":"https://foursquare.com/img/categories/education/cafeteria_","sizes":[32,44,64,88,256],"name":".png"},"primary":true}],"verified":false,"stats":{"checkinsCount":29,"usersCount":11,"tipCount":0},"hereNow":{"count":0}},{"id":"4ceff8f762ef6dcbdbb3015a","name":"Cellar 53 Wine & Spirits","contact":{},"location":{"address":"791 10th Ave","crossStreet":"53rd St","lat":40.7669156,"lng":-73.9901981,"distance":207,"postalCode":"10019","city":"New York","state":"NY"},"categories":[{"id":"4bf58dd8d48988d186941735","name":"Liquor Store","pluralName":"Liquor Stores","shortName":"Liquor Store","icon":{"prefix":"https://foursquare.com/img/categories/shops/default_","sizes":[32,44,64,88,256],"name":".png"},"primary":true}],"verified":false,"stats":{"checkinsCount":200,"usersCount":42,"tipCount":1},"hereNow":{"count":0}},{"id":"4dc039550f2cf6d708d8c27c","name":"The Westport","contact":{"phone":"2125815858","formattedPhone":"(212) 581-5858","twitter":"thewestport"},"location":{"address":"500 West 56th Street","crossStreet":"10th Avenue","lat":40.768143,"lng":-73.989444,"distance":76,"postalCode":"10019","city":"New York","state":"NY"},"categories":[{"id":"4d954b06a243a5684965b473","name":"Apartment Building / Condo Complex","pluralName":"Apartment Buildings / Condo Complexes","shortName":"Apartment Buildings","icon":{"prefix":"https://foursquare.com/img/categories/building/home_","sizes":[32,44,64,88,256],"name":".png"},"primary":true}],"verified":true,"stats":{"checkinsCount":67,"usersCount":27,"tipCount":0},"url":"http://www.relatedrentals.com","hereNow":{"count":0}},{"id":"4b7c6881f964a52084912fe3","name":"Hanci Turkish Cuisine","contact":{"phone":"2127078144","formattedPhone":"(212) 707-8144"},"location":{"address":"854 10th Ave","lat":40.768578,"lng":-73.989055,"distance":69,"postalCode":"10019","city":"New York","state":"NY","country":"USA"},"categories":[{"id":"4bf58dd8d48988d115941735","name":"Middle Eastern Restaurant","pluralName":"Middle Eastern Restaurants","shortName":"Middle Eastern","icon":{"prefix":"https://foursquare.com/img/categories/food/middleeastern_","sizes":[32,44,64,88,256],"name":".png"},"primary":true}],"verified":false,"stats":{"checkinsCount":116,"usersCount":105,"tipCount":4},"hereNow":{"count":0}},{"id":"4ae8b5faf964a5209fb121e3","name":"Skylight Lounge - Holiday Inn","contact":{"phone":"2125818100","formattedPhone":"(212) 581-8100"},"location":{"address":"440 W. 57th St.","crossStreet":"Tenth Ave.","lat":40.768383,"lng":-73.98715,"distance":231,"postalCode":"10019","city":"New York","state":"NY"},"categories":[{"id":"4bf58dd8d48988d131951735","name":"Hotel Bar","pluralName":"Hotel Bars","shortName":"Hotel Bar","icon":{"prefix":"https://foursquare.com/img/categories/travel/hotel_bar_","sizes":[32,44,64,88,256],"name":".png"},"primary":true}],"verified":false,"stats":{"checkinsCount":133,"usersCount":62,"tipCount":5},"hereNow":{"count":0}},{"id":"4b0ac7e8f964a520b82723e3","name":"Duane Reade","contact":{"phone":"2125815527","formattedPhone":"(212) 581-5527"},"location":{"address":"4 Amsterdam Ave","crossStreet":"at 59th St","lat":40.7705979,"lng":-73.98749,"distance":284,"postalCode":"10024","city":"New York","state":"NY"},"categories":[{"id":"4bf58dd8d48988d10f951735","name":"Drugstore or Pharmacy","pluralName":"Drugstores or Pharmacies","shortName":"Drug Store / Pharmacy","icon":{"prefix":"https://foursquare.com/img/categories/shops/drugstore_","sizes":[32,44,64,88,256],"name":".png"},"primary":true}],"verified":true,"stats":{"checkinsCount":912,"usersCount":302,"tipCount":2},"hereNow":{"count":0}},{"id":"4a39704bf964a520709f1fe3","name":"Unitel/AMV Studios","contact":{"phone":"2122653600","formattedPhone":"(212) 265-3600"},"location":{"address":"515 W 57th St","crossStreet":"btw 10 & 11 Aves","lat":40.769424,"lng":-73.989065,"distance":98,"postalCode":"10019","city":"New York","state":"NY"},"categories":[{"id":"4bf58dd8d48988d1f1931735","name":"General Entertainment","pluralName":"General Entertainment","shortName":"Other - Entertainment","icon":{"prefix":"https://foursquare.com/img/categories/arts_entertainment/default_","sizes":[32,44,64,88,256],"name":".png"},"primary":true}],"verified":false,"stats":{"checkinsCount":255,"usersCount":29,"tipCount":1},"hereNow":{"count":0}},{"id":"4d0a0f8bd4018cfa19974528","name":"Open Road Volkswagen of Manhattan","contact":{"phone":"8777049294","formattedPhone":"(877) 704-9294"},"location":{"address":"798 11th Ave","crossStreet":"W 55th","lat":40.768876,"lng":-73.990767,"distance":78,"postalCode":"10019","city":"New York","state":"NY"},"categories":[{"id":"4bf58dd8d48988d124951735","name":"Automotive Shop","pluralName":"Automotive Shops","shortName":"Automotive","icon":{"prefix":"https://foursquare.com/img/categories/shops/automotive_","sizes":[32,44,64,88,256],"name":".png"},"primary":true}],"verified":false,"stats":{"checkinsCount":175,"usersCount":34,"tipCount":0},"hereNow":{"count":0}},{"id":"49c18298f964a520b0551fe3","name":"Valhalla","contact":{},"location":{"address":"815 9th Ave","crossStreet":"at 54th St","lat":40.765928,"lng":-73.987038,"distance":394,"postalCode":"10019","city":"New York","state":"NY","country":"USA"},"categories":[{"id":"4bf58dd8d48988d116941735","name":"Bar","pluralName":"Bars","shortName":"Bar","icon":{"prefix":"https://foursquare.com/img/categories/nightlife/bar_","sizes":[32,44,64,88,256],"name":".png"},"primary":true}],"verified":false,"stats":{"checkinsCount":3302,"usersCount":2157,"tipCount":18},"hereNow":{"count":0}},{"id":"4e504f0b8877402b06d13dcc","name":"Nanny's House","contact":{},"location":{"address":"790 11th Avenue.     9","crossStreet":"54th","lat":40.7678075,"lng":-73.99000497718325,"distance":107,"postalCode":"10019","city":"New York","state":"NY"},"categories":[{"id":"4d954b06a243a5684965b473","name":"Apartment Building / Condo Complex","pluralName":"Apartment Buildings / Condo Complexes","shortName":"Apartment Buildings","icon":{"prefix":"https://foursquare.com/img/categories/building/home_","sizes":[32,44,64,88,256],"name":".png"},"primary":true}],"verified":false,"stats":{"checkinsCount":62,"usersCount":2,"tipCount":0},"hereNow":{"count":0}},{"id":"4dc7fb921f6ef43b8a51c980","name":"LabCorp","contact":{},"location":{"address":"521 W 57th St.","crossStreet":"btwn 10th &11th Aves.","lat":40.7694112,"lng":-73.9895391,"distance":76,"postalCode":"10019","city":"New York","state":"NY"},"categories":[{"id":"4bf58dd8d48988d104941735","name":"Medical Center","pluralName":"Medical Centers","shortName":"Medical","icon":{"prefix":"https://foursquare.com/img/categories/building/medical_","sizes":[32,44,64,88,256],"name":".png"},"primary":true}],"verified":false,"stats":{"checkinsCount":70,"usersCount":4,"tipCount":0},"hereNow":{"count":0}},{"id":"4be31a1bf07b0f472418f743","name":"Barnes & Noble @ John Jay College","contact":{"phone":"2122653619","formattedPhone":"(212) 265-3619","twitter":"BNBuzz"},"location":{"address":"841 10th Ave.","crossStreet":"at W 55th St.","lat":40.76814053333333,"lng":-73.989294,"distance":83,"postalCode":"10019","city":"New York","state":"NY","country":"USA"},"categories":[{"id":"4bf58dd8d48988d1b1941735","name":"College Bookstore","pluralName":"College Bookstores","shortName":"Bookstore","icon":{"prefix":"https://foursquare.com/img/categories/education/bookstore_","sizes":[32,44,64,88,256],"name":".png"},"primary":true}],"verified":true,"stats":{"checkinsCount":158,"usersCount":106,"tipCount":2},"hereNow":{"count":0}},{"id":"4d7fa8cecd09224b0e726030","name":"John Jay College - Westport Math Lab","contact":{"phone":"2122378005","formattedPhone":"(212) 237-8005"},"location":{"address":"Westport","crossStreet":"John Jay College of Criminal Justice","lat":40.76838673186755,"lng":-73.98963689804077,"distance":45,"postalCode":"10019","city":"New York","state":"New York"},"categories":[{"id":"4bf58dd8d48988d1a5941735","name":"College Lab","pluralName":"College Labs","shortName":"Lab","icon":{"prefix":"https://foursquare.com/img/categories/education/default_","sizes":[32,44,64,88,256],"name":".png"},"primary":true}],"verified":false,"stats":{"checkinsCount":16,"usersCount":10,"tipCount":1},"hereNow":{"count":0}}]}}